City,Country,Latitude,Longitude,Date,Temp,Cloudiness,Humidity,Wind Speed
Ancud,CL,-41.87,-73.83,1538177416,48.93,92,98,8.41
Tambun,MY,4.62,101.14,1538175600,77.0,75,94,1.14
Margate,AU,-43.03,147.26,1538175600,50.0,20,46,23.04
Victor Harbor,AU,-35.55,138.62,1538175600,53.6,20,54,5.82
Ushuaia,AR,-54.81,-68.31,1538175600,37.4,90,86,21.92
Lompoc,US,34.64,-120.46,1538175360,77.0,1,72,16.11
Punta Arenas,CL,-53.16,-70.91,1538175600,41.0,0,100,8.05
Naze,NG,5.43,7.07,1538172000,73.4,40,94,1.59
Port-Gentil,GA,-0.72,8.78,1538175600,78.8,75,88,6.93
Port Elizabeth,US,39.31,-74.98,1538175360,66.92,1,93,4.38
Caucaia,BR,-3.73,-38.66,1538175600,80.6,0,74,9.17
Puerto Ayora,EC,-0.74,-90.35,1538175600,77.0,20,73,19.46
Lebu,ET,8.96,38.73,1538175600,59.0,20,47,9.17
Rikitea,PF,-23.12,-134.97,1538177573,71.88,92,100,4.83
Albany,US,42.65,-73.75,1538175900,59.0,75,77,3.36
Geraldton,CA,49.72,-86.95,1538175600,41.0,75,65,2.24
Yining,CN,29.04,114.56,1538177864,66.93,0,84,3.49
Vaini,IN,15.34,74.49,1538177567,68.73,92,98,2.15
Neuquen,AR,-38.95,-68.06,1538175600,66.2,0,32,16.11
Pevek,RU,69.7,170.27,1538177809,44.07,56,90,3.38
Santa Cruz,US,36.97,-122.03,1538175780,71.6,20,67,6.93
Fortuna,ES,38.18,-1.13,1538175600,68.0,0,82,4.7
Port Alfred,ZA,-33.59,26.89,1538177646,63.06,0,85,26.98
Los Llanos de Aridane,ES,28.66,-17.92,1538175600,73.4,44,73,13.87
Kupang,ID,-10.16,123.6,1538175600,82.4,20,54,3.36
Kapaa,US,22.08,-159.32,1538175360,84.92,75,79,17.22
Singaparna,ID,-7.35,108.11,1538177867,60.63,20,90,1.7
Abu Kamal,SY,34.45,40.92,1538177868,65.49,0,33,4.94
Cape Town,ZA,-33.93,18.42,1538175600,48.2,20,81,3.36
Sachin,FR,50.49,2.38,1538177400,48.2,0,87,11.41
Barentu,ER,15.11,37.59,1538177869,60.36,20,67,3.94
Pavlovka,RU,52.69,47.13,1538177869,51.45,32,75,15.68
Butaritari,KI,3.07,172.79,1538177663,85.29,0,100,6.85
Virginia Beach,US,36.85,-75.98,1538176560,73.94,75,76,4.7
Vershino-Darasunskiy,RU,52.35,115.52,1538177870,47.67,32,76,6.17
Moose Factory,CA,51.26,-80.61,1538175840,39.2,90,86,3.36
Amahai,ID,-3.31,129.0,1538177871,79.17,88,100,9.19
Ojinaga,US,29.56,-104.41,1538177727,85.29,0,27,2.82
Kyshtovka,RU,56.56,76.62,1538177872,44.7,8,91,15.79
Cidreira,BR,-30.17,-50.22,1538177624,66.93,56,92,20.15
Dagda,LV,56.09,27.54,1538177872,40.83,8,93,9.75
Bambous Virieux,MU,-20.34,57.76,1538175600,71.6,40,73,10.29
Kungurtug,RU,50.6,97.53,1538177873,16.53,0,70,2.37
Reconquista,AR,-29.14,-59.64,1538177873,79.98,24,69,10.31
Barrow,AR,-38.31,-60.23,1538177689,59.91,92,97,7.96
Road Town,VG,18.42,-64.62,1538175600,80.6,40,78,10.29
Dicabisagan,PH,17.08,122.42,1538177874,81.24,12,100,5.06
Jamestown,AU,-33.21,138.6,1538177691,52.08,0,47,8.97
Golden,CA,51.3,-116.96,1538175600,51.8,90,43,2.24
Goundam,ML,16.42,-3.66,1538177875,80.7,8,59,7.63
Sao Gabriel da Cachoeira,BR,-0.13,-67.09,1538177875,77.73,56,92,0.92
Luderitz,NA,-26.65,15.16,1538177850,58.29,8,68,17.13
Qaqortoq,GL,60.72,-46.03,1538175000,37.4,0,69,17.22
Tazovskiy,RU,67.47,78.7,1538177876,52.08,8,66,19.71
Saldanha,PT,41.42,-6.55,1538177548,60.27,8,69,6.62
Dikson,RU,73.51,80.55,1538177563,40.02,64,89,14.67
Dunmore Town,BS,25.5,-76.65,1538177877,82.77,92,100,20.83
Mataura,NZ,-46.19,168.86,1538177538,58.74,80,62,25.08
Narsaq,GL,60.91,-46.05,1538175000,37.4,0,69,17.22
Denpasar,ID,-8.65,115.22,1538177878,74.67,20,89,2.15
Krasnovishersk,RU,60.4,57.08,1538177878,40.56,92,99,8.63
Khatanga,RU,71.98,102.47,1538177584,40.83,12,90,12.88
Kaeo,NZ,-35.1,173.78,1538177879,60.99,64,53,1.14
Ilulissat,GL,69.22,-51.1,1538175000,33.8,75,74,10.29
Campo Grande,BR,-20.46,-54.62,1538175600,75.2,20,78,4.7
Bethel,US,60.79,-161.76,1538175180,66.02,20,54,18.34
Nizwa,OM,22.93,57.53,1538177787,65.04,0,66,2.82
Tuktoyaktuk,CA,69.44,-133.03,1538175600,30.2,90,80,9.17
Hermanus,ZA,-34.42,19.24,1538177547,44.61,56,91,1.92
Mwense,ZM,-10.39,28.7,1538177881,75.21,88,37,3.83
Provideniya,RU,64.42,-173.23,1538177642,48.21,92,86,27.2
Citta di Castello,IT,43.47,12.23,1538175000,59.0,0,44,2.24
Rawson,AR,-43.3,-65.11,1538177882,54.42,20,65,6.85
Rajapur,IN,25.39,81.15,1538177882,75.57,8,71,2.59
Esperance,TT,10.24,-61.45,1538175600,80.6,20,88,7.96
Busselton,AU,-33.64,115.35,1538177564,59.46,76,100,20.15
Itoman,JP,26.12,127.67,1538177280,78.8,75,88,46.08
Saskylakh,RU,71.97,114.09,1538177724,31.74,92,94,12.21
Victoria,BN,5.28,115.24,1538175600,78.8,75,94,4.16
Hilo,US,19.71,-155.08,1538175360,87.08,20,63,12.75
Sebeta,ET,8.91,38.62,1538175600,59.0,20,47,9.17
Toamasina,MG,-18.17,49.38,1538175600,66.2,75,93,2.15
Bluff,AU,-23.58,149.07,1538177723,77.46,0,55,5.61
Qaanaaq,GL,77.48,-69.36,1538177697,13.29,0,100,11.77
Lazaro Cardenas,MX,28.39,-105.62,1538174460,84.2,40,30,5.82
Methoni,GR,36.82,21.7,1538175000,62.6,75,88,4.7
Riyadh,SA,24.63,46.72,1538175600,80.6,0,12,3.36
Maceio,BR,-9.67,-35.74,1538175600,73.4,0,88,8.05
Nanortalik,GL,60.14,-45.24,1538177748,37.77,0,94,30.22
Rocha,UY,-34.48,-54.34,1538177758,61.71,92,97,18.37
Sobolevo,RU,54.43,31.9,1538177886,36.78,80,91,2.93
Kedrovyy,RU,56.17,91.82,1538175600,33.8,0,100,4.47
La Ronge,CA,55.1,-105.3,1538175600,37.4,90,55,10.29
Grand Gaube,MU,-20.01,57.66,1538175600,71.6,40,73,10.29
Souillac,FR,45.6,-0.6,1538177400,64.4,0,55,13.87
Mahebourg,MU,-20.41,57.7,1538175600,71.6,40,73,10.29
Angoche,MZ,-16.23,39.91,1538177887,77.01,0,100,10.42
Lata,IN,30.78,78.62,1538177669,45.87,0,86,2.26
Saint-Pierre,FR,48.95,4.24,1538175600,53.6,0,81,18.34
Saint Anthony,US,43.97,-111.68,1538175360,78.08,1,3,8.05
Deputatskiy,RU,69.3,139.9,1538177889,27.6,80,87,12.88
Salalah,OM,17.01,54.1,1538175000,78.8,75,74,3.36
Kaitangata,NZ,-46.28,169.85,1538177619,59.19,32,69,11.65
Coos Bay,US,43.37,-124.22,1538176500,55.04,90,86,9.17
Clyde River,CA,70.47,-68.59,1538175600,30.2,75,80,3.36
Fortuna Foothills,US,32.66,-114.41,1538175420,105.08,20,16,16.11
Cherskiy,RU,68.75,161.3,1538177643,37.32,32,86,3.15
Isangel,VU,-19.55,169.27,1538177787,71.61,92,100,18.7
Katangli,RU,51.71,143.23,1538177891,56.31,0,77,12.33
Faanui,PF,-16.48,-151.75,1538177716,77.19,24,100,5.61
Aripuana,BR,-9.17,-60.63,1538177761,79.44,8,82,2.59
Longyearbyen,NO,78.22,15.63,1538175000,26.6,75,73,21.92
Mount Isa,AU,-20.73,139.49,1538175600,84.2,0,20,5.82
Airai,TL,-8.93,125.41,1538177657,76.11,0,62,2.37
Tamale,GH,9.4,-0.84,1538177762,75.39,8,89,6.62
Bathsheba,BB,13.22,-59.52,1538175600,82.4,20,78,21.92
Aklavik,CA,68.22,-135.01,1538175600,33.8,75,74,9.17
Tiksi,RU,71.64,128.87,1538177811,29.76,92,99,4.16
Vanavara,RU,60.35,102.28,1538177893,30.66,0,80,2.48
Arraial do Cabo,BR,-22.97,-42.02,1538177894,72.69,64,98,6.29
Tapes,BR,-30.67,-51.4,1538177894,66.84,48,91,19.26
Abha,SA,18.22,42.5,1538175600,68.0,0,31,5.82
Axim,GH,4.87,-2.24,1538177895,78.09,92,98,9.75
Codrington,AU,-28.95,153.24,1538177717,73.14,0,71,8.19
Atuona,PF,-9.8,-139.03,1538177542,79.53,76,100,10.65
Hofn,IS,64.25,-15.21,1538177655,45.69,0,96,33.91
Nikolskoye,RU,59.7,30.79,1538175600,39.2,0,69,6.71
Kavieng,PG,-2.57,150.8,1538177672,85.11,12,100,8.63
Nhulunbuy,AU,-12.18,136.78,1538175600,80.6,40,57,17.22
Dinguiraye,GN,11.29,-10.71,1538177896,67.74,36,98,4.16
Werda,DE,50.44,12.3,1538176800,41.0,36,100,2.24
Saint-Augustin,FR,44.83,-0.61,1538175600,66.2,0,63,8.05
Rottingdean,GB,50.8,-0.06,1538176800,46.4,0,81,3.36
Krutikha,RU,53.96,81.21,1538177897,50.37,24,72,15.12
Ngunguru,NZ,-35.62,174.5,1538177898,57.21,0,100,1.48
Talaya,RU,55.79,84.89,1538177898,51.45,32,70,11.21
Ribeira Grande,PT,38.52,-28.7,1538177639,73.23,32,100,12.55
Baykit,RU,61.68,96.39,1538177898,29.85,0,81,4.38
Wangaratta,AU,-36.36,146.32,1538175600,50.0,8,57,11.41
Georgetown,GY,6.8,-58.16,1538175600,80.6,20,83,9.17
Collie,AU,-33.36,116.15,1538177900,56.04,32,51,16.24
Keflavik,IS,64.0,-22.56,1538175600,42.8,75,87,27.51
Egvekinot,RU,66.32,-179.17,1538177900,38.31,92,99,8.52
College,US,64.86,-147.8,1538175480,54.14,1,7,13.87
Ponta do Sol,BR,-20.63,-46.0,1538177708,73.77,68,60,7.52
Bandarbeyla,SO,9.49,50.81,1538177858,77.01,0,99,18.7
Jiangkou,CN,30.7,117.56,1538177901,68.19,0,93,5.39
Bredasdorp,ZA,-34.53,20.04,1538175600,55.4,36,62,5.82
Awjilah,LY,29.14,21.3,1538177902,60.99,0,45,8.63
Vestmannaeyjar,IS,63.44,-20.27,1538177732,45.15,92,100,31.0
Richards Bay,ZA,-28.77,32.06,1538177903,67.56,88,84,4.38
Bay Roberts,CA,47.58,-53.28,1538175600,51.8,90,100,11.41
Astana,KZ,51.13,71.43,1538175600,39.2,0,80,8.95
Westport,IE,53.8,-9.52,1538177904,40.11,0,100,4.38
Walvis Bay,NA,-22.95,14.51,1538175600,53.6,0,81,8.05
Torbay,CA,47.66,-52.73,1538175600,51.8,90,100,11.41
Kruisfontein,ZA,-34.0,24.73,1538177579,60.45,88,84,23.85
Pilar,AR,-34.46,-58.91,1538175600,69.8,0,83,11.41
Trairi,BR,-3.28,-39.27,1538177905,79.89,0,98,17.81
Ballina,IE,54.11,-9.15,1538177905,36.69,8,100,3.15
Calafell,ES,41.2,1.57,1538177400,69.8,0,72,6.93
Ilebo,CD,-4.33,20.59,1538177906,75.39,80,91,2.15
Lakes Entrance,AU,-37.88,147.99,1538177778,51.09,56,91,12.55
Shakiso,ET,5.77,38.9,1538177906,58.47,80,99,2.37
Zhigansk,RU,66.77,123.37,1538177907,33.81,44,100,5.73
Beringovskiy,RU,63.05,179.32,1538177732,48.12,100,95,17.13
Kununurra,AU,-15.77,128.74,1538175600,80.6,0,74,8.05
Hobart,AU,-42.88,147.33,1538175600,50.0,20,46,23.04
Big Bend,SZ,-26.79,31.94,1538172000,60.8,92,93,1.12
Hasaki,JP,35.73,140.83,1538176500,68.0,75,100,2.24
Nioro,GM,13.79,-15.05,1538177908,78.99,68,79,8.41
Avarua,CK,-21.21,-159.78,1538177805,72.15,76,100,15.23
Barghat,IN,22.03,79.74,1538177909,68.01,0,85,2.71
Lorengau,PG,-2.02,147.27,1538177909,84.66,20,97,9.53
Nantucket,US,41.28,-70.1,1538176500,60.98,90,93,14.99
Cove,US,29.8,-94.84,1538177700,80.96,75,74,7.18
Yellowknife,CA,62.45,-114.38,1538175600,33.8,90,80,14.99
Cockburn Town,TC,21.46,-71.14,1538177631,83.67,56,97,16.24
Esso,RU,55.93,158.7,1538177911,47.13,0,44,2.59
Thompson,CA,55.74,-97.86,1538175600,33.8,90,59,10.29
Sao Joao da Barra,BR,-21.64,-41.05,1538175600,75.2,90,88,11.41
Saint-Philippe,CA,45.36,-73.48,1538176500,66.2,1,77,12.75
Paramonga,PE,-10.68,-77.82,1538177912,61.17,68,100,7.74
Luhyny,UA,51.08,28.4,1538177912,49.29,12,95,6.29
Kodiak,US,39.95,-94.76,1538175180,53.06,90,60,10.29
Puerto Baquerizo Moreno,EC,-0.9,-89.6,1538175600,73.4,75,83,13.87
Sao Paulo de Olivenca,BR,-3.38,-68.87,1538177913,81.06,8,80,3.71
Pingliang,CN,35.54,106.68,1538177914,40.56,0,77,2.71
Dingle,PH,11.0,122.67,1538177683,78.0,76,97,6.85
Jiuquan,CN,39.73,98.49,1538177914,28.86,0,43,6.62
Flinders,AU,-34.58,150.85,1538172000,59.0,68,47,6.93
Devils Lake,US,48.11,-98.87,1538176500,41.0,90,15,13.87
Opunake,NZ,-39.45,173.86,1538177915,54.87,76,88,14.23
Cabo San Lucas,MX,22.89,-109.91,1538174520,86.0,75,74,10.29
Batsfjord,NO,70.63,29.72,1538175000,30.2,20,80,11.41
Oktyabrskiy,RU,55.61,37.97,1538175600,42.8,75,75,6.71
Tilichiki,RU,60.47,166.1,1538177916,40.74,0,94,3.83
Chokurdakh,RU,70.62,147.9,1538177728,30.21,56,100,6.17
New Norfolk,AU,-42.78,147.06,1538175600,50.0,20,46,23.04
Ferme-Neuve,CA,46.7,-75.45,1538177887,53.61,88,100,10.65
Sao Jose da Coroa Grande,BR,-8.9,-35.15,1538177900,72.06,24,98,5.61
Saint George,GR,39.45,22.34,1538175000,60.8,75,63,8.05
Puerto Escondido,MX,15.86,-97.07,1538174460,87.8,90,62,23.73
Namatanai,PG,-3.66,152.44,1538177918,84.12,0,96,13.0
Khorramshahr,IR,30.43,48.18,1538175600,78.8,0,29,4.7
Acapulco,MX,16.86,-99.88,1538174820,86.0,75,74,5.82
Huamachuco,PE,-7.82,-78.05,1538177919,48.66,80,90,1.92
Carnarvon,ZA,-30.97,22.13,1538177859,38.67,0,43,9.08
Laval,CA,45.58,-73.75,1538175600,66.2,40,72,10.29
Erzin,TR,36.95,36.2,1538175000,77.0,0,65,8.05
Marystown,CA,47.17,-55.16,1538177920,54.06,100,96,15.01
Martapura,ID,-3.41,114.85,1538172000,73.4,90,94,3.36
Portland,US,45.52,-122.67,1538175360,87.08,1,26,3.36
Rome,IT,41.89,12.48,1538175300,60.8,0,62,5.82
Vila Franca do Campo,PT,37.72,-25.43,1538175600,71.6,75,88,9.17
Kavaratti,IN,10.57,72.64,1538177922,79.26,64,100,9.19
Henties Bay,NA,-22.12,14.28,1538177922,54.87,0,98,1.92
Pisco,PE,-13.71,-76.2,1538175600,71.6,0,30,12.75
Sfantu Gheorghe,RO,44.65,26.83,1538175600,53.6,0,81,2.93
Liwale,TZ,-9.8,37.92,1538177923,64.14,8,93,3.15
Belmonte,PT,40.36,-7.35,1538177923,58.29,8,73,3.38
Kuryk,KZ,43.18,51.68,1538177923,55.77,20,74,11.88
Yerbogachen,RU,61.28,108.01,1538177753,32.73,0,84,2.37
Pabrade,LT,55.0,25.78,1538176800,42.8,75,93,6.93
Rabat,MA,34.02,-6.83,1538175600,77.0,20,50,10.29
Skagen,SE,58.6,13.44,1538176800,33.8,0,100,4.7
Mar del Plata,AR,-46.43,-67.52,1538177730,57.03,0,50,10.65
Kilindoni,TZ,-7.91,39.67,1538177925,78.09,8,99,11.54
Gat,SN,14.69,-16.54,1538175600,82.4,32,83,4.7
Hauterive,FR,46.09,3.45,1538177400,59.0,75,62,9.17
Mount Gambier,AU,-37.83,140.78,1538177702,53.61,64,77,4.61
Tasiilaq,GL,65.61,-37.64,1538175000,42.8,0,30,28.86
Hithadhoo,MV,-0.6,73.08,1538177582,79.26,92,100,19.82
Gushi,CN,32.17,115.65,1538177927,65.85,0,81,4.16
Miram Shah,PK,33.01,70.07,1538177927,52.26,0,76,2.93
Marshfield,US,42.09,-70.71,1538176740,60.08,90,87,3.36
Sola,NO,58.89,5.65,1538176800,50.0,90,87,3.36
Ushtobe,KZ,45.25,77.98,1538177928,45.42,0,73,3.38
Syamzha,RU,60.02,41.06,1538177929,42.09,92,97,11.43
Spearfish,US,44.49,-103.86,1538176500,42.8,75,81,10.29
Novyy Urgal,RU,51.07,132.56,1538177780,53.07,0,84,3.83
Noumea,NC,-22.28,166.46,1538175600,77.0,0,47,12.75
Guerrero Negro,MX,27.97,-114.04,1538177800,81.69,8,51,10.31
Vao,EE,59.1,26.19,1538177930,37.14,0,83,5.61
Gambissara,SN,13.24,-14.31,1538177930,76.74,92,85,6.73
Sovetskaya Gavan,RU,48.97,140.29,1538177931,54.33,0,91,5.84
Derzhavinsk,KZ,51.1,66.31,1538177613,38.22,8,86,8.08
Leningradskiy,RU,69.38,178.42,1538177635,42.0,88,91,16.8
Neiafu,TO,-18.65,-173.98,1538175600,78.8,75,69,8.05
East London,ZA,-33.02,27.91,1538177361,65.31,0,100,30.33
Brae,GB,60.4,-1.35,1538176800,50.0,92,66,26.4
Marzuq,YE,14.4,46.47,1538177932,51.27,0,53,2.26
Bambanglipuro,ID,-7.95,110.28,1538177932,71.16,80,95,3.38
Araguari,BR,-18.65,-48.19,1538172000,80.6,0,51,10.29
Cururupu,BR,-1.82,-44.87,1538177933,79.26,12,77,9.53
Katsuura,JP,33.93,134.5,1538175600,66.2,75,100,3.36
Purworejo,ID,-7.71,110.01,1538177934,73.5,92,99,4.16
Lumphat,KH,13.5,106.97,1538177935,75.39,0,93,2.93
Strzelce Opolskie,PL,50.52,18.3,1538177400,50.0,0,66,8.05
Namibe,AO,-15.19,12.15,1538177918,68.55,12,99,7.4
Zyryanka,RU,65.73,150.89,1538177936,32.73,92,80,8.08
Coquimbo,CL,-29.95,-71.34,1538175600,55.4,20,93,6.93
Lufilufi,WS,-13.87,-171.6,1538175600,87.8,75,62,9.17
Oxelosund,SE,58.67,17.1,1538176800,35.6,0,80,4.7
Paris,FR,48.86,2.35,1538175600,51.8,0,71,4.7
Syasstroy,RU,60.14,32.56,1538177938,41.91,88,90,9.19
Athni,IN,16.73,75.07,1538177938,68.37,24,97,3.49
Port Macquarie,AU,-31.43,152.91,1538175600,68.0,8,60,5.82
Buraydah,SA,26.33,43.97,1538175600,84.2,0,21,6.93
Qorveh,IR,35.17,47.8,1538177878,51.36,0,53,7.96
Kalmunai,LK,7.42,81.82,1538177939,72.51,68,100,2.71
Port Augusta,AU,-32.49,137.76,1538175600,53.6,0,58,11.41
Harbour Breton,CA,47.48,-55.8,1538177940,54.51,100,95,13.67
Lagoa,PT,37.14,-8.45,1538175600,71.6,0,83,4.7
Tiznit,MA,29.7,-9.73,1538177940,69.99,80,94,4.83
Bacungan,PH,9.87,118.73,1538175600,80.6,20,83,2.24
Helong,CN,25.94,116.13,1538177941,69.54,0,74,6.62
Mahon,IE,51.89,-8.4,1538177400,46.4,20,81,5.82
Baruun-Urt,MN,46.68,113.28,1538177544,35.34,80,87,9.31
Palauig,PH,15.44,119.9,1538177942,79.44,44,95,4.16
Mingguang,CN,32.78,118.01,1538177942,69.63,0,80,9.19
Tecpan,GT,14.76,-90.99,1538175600,71.6,40,68,3.71
Hazorasp,UZ,41.32,61.08,1538172000,57.2,0,44,9.17
Talara,PE,-4.58,-81.27,1538175600,62.6,40,100,9.17
Hirara,JP,24.8,125.28,1538176980,80.6,75,94,57.49
Wisconsin Rapids,US,44.39,-89.82,1538177700,51.98,1,9,6.93
Iqaluit,CA,63.75,-68.52,1538175600,33.8,75,80,9.17
Mana,RS,43.52,20.24,1538175600,41.0,0,93,1.12
Zemio,CF,5.02,25.13,1538177945,68.64,8,94,2.71
Vysokogornyy,RU,50.1,139.13,1538177945,49.11,0,83,3.15
Nanga Eboko,CM,4.68,12.37,1538177945,69.36,68,100,3.15
Auki,NG,12.18,6.51,1538177728,73.14,12,87,5.17
Concordia,AR,-31.4,-58.02,1538177946,75.93,76,73,13.67
Carutapera,BR,-1.2,-46.02,1538177748,80.52,8,78,12.44
Nola,CF,3.52,16.05,1538177947,66.03,20,99,2.04
Sibolga,ID,1.74,98.78,1538177698,70.53,76,100,1.7
Petropavlovsk-Kamchatskiy,RU,53.05,158.65,1538175600,50.0,0,61,4.47
Eyl,SO,7.98,49.82,1538177947,77.28,8,88,18.03
Tongren,CN,27.72,109.18,1538177948,60.18,12,89,2.59
Tuatapere,NZ,-46.13,167.69,1538177896,52.44,92,92,19.71
Sao Filipe,CV,14.9,-24.5,1538177541,79.17,0,93,17.92
Folkestone,US,34.1,-80.94,1538177700,82.94,40,88,2.48
Mehamn,NO,71.03,27.85,1538177948,35.43,24,98,10.98
Sawakin,SD,19.1,37.33,1538177949,76.56,0,88,6.62
Port Blair,IN,11.67,92.75,1538177727,83.4,12,100,6.17
Menongue,AO,-14.66,17.68,1538177949,70.26,48,50,3.15
Chuy,UY,-33.69,-53.46,1538177688,62.79,92,96,23.4
Guymon,US,36.68,-101.48,1538175360,48.92,90,82,16.11
Kizema,RU,61.11,44.83,1538177950,40.11,88,96,7.18
Hokitika,NZ,-42.72,170.96,1538177950,51.45,88,100,9.75
Whyalla,AU,-33.04,137.58,1538175600,53.6,0,58,11.41
Loveland,US,40.4,-105.08,1538176020,50.0,90,75,12.75
Lavrentiya,RU,65.58,-170.99,1538177812,44.7,92,91,28.88
Padang,ID,-0.92,100.36,1538177685,78.81,24,100,3.49
Tournon-sur-Rhone,FR,45.07,4.83,1538177400,60.8,75,63,4.7
Pimentel,BR,-3.7,-45.5,1538177952,84.39,48,61,6.96
Tual,ID,-5.67,132.75,1538177765,81.06,0,97,17.69
Bonavista,CA,48.65,-53.11,1538177953,51.99,100,98,14.0
Querfurt,DE,51.38,11.6,1538176800,44.6,0,70,9.17
Camopi,GF,3.17,-52.33,1538177953,84.93,0,56,5.5
Nabinagar,BD,23.88,90.97,1538177400,82.4,40,88,3.36
Port Keats,AU,-14.25,129.55,1538177954,80.79,0,75,13.78
Coahuayana,MX,18.62,-100.35,1538177807,81.96,24,52,2.26
Ingham,AU,-18.65,146.16,1538177955,76.2,0,85,9.98
Paraiso,MX,24.01,-104.61,1538174880,71.6,90,53,5.82
Severo-Kurilsk,RU,50.68,156.12,1538177744,51.18,44,91,6.51
Ilek,RU,51.53,53.38,1538177956,47.58,0,74,13.0
Mumbwa,ZM,-14.99,27.06,1538177956,70.17,0,47,9.42
Sampit,ID,-2.54,112.95,1538177956,77.37,0,85,5.95
Manavalakurichi,IN,8.13,77.3,1538177400,78.8,40,83,4.7
Bowen,AU,-20.01,148.25,1538172000,73.4,0,69,9.17
Avera,US,33.19,-82.53,1538175300,84.02,40,78,3.15
Nuoro,IT,40.32,9.33,1538175000,64.4,0,82,9.17
Purpe,RU,64.48,76.69,1538177958,56.76,44,64,23.29
Kharp,RU,66.82,65.8,1538177958,42.09,92,97,8.52
Muisne,EC,0.61,-80.02,1538177959,74.31,56,85,5.95
Veraval,FR,49.65,0.71,1538177400,50.0,0,81,8.05
Robertsport,LR,6.75,-11.37,1538177959,77.91,92,100,7.52
Laguna,MX,27.52,-110.01,1538174760,91.4,20,52,5.82
Mao,DO,19.55,-71.08,1538175600,82.4,75,69,11.41
Dudinka,RU,69.41,86.18,1538177960,49.74,76,93,20.38
Zonguldak,TR,41.25,31.83,1538177769,57.03,36,99,2.15
Corinto,BR,-18.36,-44.46,1538177961,81.51,68,41,8.3
Haselunne,DE,52.67,7.48,1538176800,39.2,12,100,1.12
Udachnyy,RU,66.42,112.4,1538177735,35.61,24,94,4.16
Yulara,AU,-25.24,130.99,1538176020,66.2,80,34,21.92
Marshall,US,39.39,-87.69,1538176500,73.94,1,47,12.75
Akhtanizovskaya,RU,45.32,37.1,1538175600,48.2,0,87,11.18
Puerto Leguizamo,CO,-0.19,-74.78,1538177963,78.0,44,88,2.71
Batagay-Alyta,RU,67.8,130.41,1538177963,15.9,8,78,4.61
Mbarara,UG,-0.61,30.65,1538177963,63.51,76,88,2.93
Argentan,FR,48.74,-0.02,1538177400,51.8,0,71,9.17
Sistranda,NO,63.73,8.83,1538175000,44.6,75,70,20.8
Taoudenni,ML,22.68,-3.98,1538177964,78.09,0,28,8.63
Tabuk,PH,17.41,121.44,1538177964,71.88,68,81,2.37
Vanimo,PG,-2.67,141.3,1538177706,83.22,44,100,5.73
Broken Hill,AU,-31.97,141.45,1538177532,54.42,0,50,14.67
Zhezkazgan,KZ,47.8,67.71,1538177598,36.51,0,80,2.93
Bukama,CD,-9.2,25.85,1538177965,69.0,8,82,1.59
Fort Nelson,CA,58.81,-122.69,1538175600,46.4,75,68,8.05
Varhaug,NO,58.61,5.65,1538176800,46.4,90,87,3.36
Bosobolo,CD,4.19,19.88,1538177966,68.37,76,92,2.82
Lamu,ID,0.57,122.3,1538177966,79.17,80,83,3.6
Cameta,US,33.01,-90.84,1538175180,73.04,75,65,3.38
Qasigiannguit,GL,68.82,-51.19,1538175000,33.8,75,74,10.29
Mushie,CD,-3.02,16.92,1538177967,70.98,64,100,2.48
Tutoia,BR,-2.76,-42.27,1538177968,81.06,0,69,17.36
San Juan,AR,-31.54,-68.53,1538177969,70.44,0,27,12.21
Sitka,US,37.17,-99.65,1538177969,59.82,92,81,17.58
Meadow Lake,CA,54.13,-108.44,1538175600,42.8,20,38,11.41
Sandpoint,US,48.28,-116.55,1538176500,66.92,1,53,8.05
Saint-Michel-des-Saints,CA,46.68,-73.92,1538177970,57.3,68,74,10.76
Sinnamary,GF,5.38,-52.96,1538177536,82.59,0,94,14.23
Sindor,RU,62.87,51.9,1538177971,36.24,88,98,5.39
Deer Lake,CA,49.18,-57.43,1538175600,46.4,90,93,12.75
Makakilo City,US,21.35,-158.09,1538175840,87.08,90,94,9.17
Kinango,KE,-4.13,39.32,1538177972,73.86,88,100,11.43
Flin Flon,CA,54.77,-101.88,1538175600,35.6,75,51,5.82
Gasa,BT,27.91,89.73,1538177848,22.47,0,80,0.92
Constitucion,MX,23.99,-104.67,1538174880,71.6,90,53,5.82
Sangar,RU,63.92,127.47,1538177973,32.73,12,74,4.05
Sept-Iles,CA,50.2,-66.38,1538175600,44.6,20,87,14.99
Port Hardy,CA,50.7,-127.42,1538175600,55.4,20,87,5.82
Dubbo,AU,-32.25,148.6,1538175600,60.8,12,38,16.11
Port Lincoln,AU,-34.72,135.86,1538177974,55.32,0,93,5.84
Isla Mujeres,MX,21.23,-86.73,1538175060,84.2,75,79,8.05
Ormara,PK,25.21,64.64,1538177975,78.0,0,91,11.65
Camacha,PT,33.08,-16.33,1538175600,73.4,40,78,14.99
Nijar,ES,36.97,-2.21,1538177400,71.6,88,68,2.24
Lakshettipet,IN,18.89,79.21,1538177976,73.14,44,93,1.59
Comodoro Rivadavia,AR,-45.87,-67.48,1538175600,59.0,40,58,3.36
Cumberland,US,41.97,-71.43,1538176740,60.08,90,93,3.6
Takoradi,GH,4.89,-1.75,1538177977,77.01,88,97,6.4
Twentynine Palms,US,34.14,-116.05,1538175360,107.96,1,12,13.87
Kirakira,SB,-10.46,161.92,1538177977,80.34,36,100,13.67
Daye,CN,30.1,114.98,1538177978,68.64,0,92,3.6
Havre-Saint-Pierre,CA,50.23,-63.6,1538175600,48.2,90,76,11.41
Mgandu,TZ,-5.96,34.11,1538177978,60.27,0,68,12.21
Bunol,ES,39.42,-0.78,1538177400,62.6,0,77,4.7
Siverek,TR,37.75,39.32,1538175000,71.6,0,40,11.41
Galle,US,29.74,-97.91,1538175360,84.02,90,63,5.82
Coihaique,CL,-45.58,-72.07,1538175600,50.0,75,76,3.36
Napa,US,38.3,-122.29,1538175480,82.94,1,59,18.34
Ljungby,SE,56.83,13.94,1538176800,30.2,0,92,2.24
Harper,US,30.3,-99.24,1538176500,80.06,75,65,4.7
Kingsport,US,36.55,-82.56,1538176740,71.96,1,100,3.36
Hudiksvall,SE,61.73,17.1,1538177981,43.44,8,100,10.09
Caravelas,BR,-17.73,-39.27,1538177535,77.19,0,100,16.46
Palmer,AU,-34.85,139.16,1538175600,53.6,20,54,5.82
Yumen,CN,40.29,97.04,1538177742,42.81,0,32,10.54
Evensk,RU,61.92,159.24,1538177982,40.74,100,100,14.67
Castro,CL,-42.48,-73.76,1538177648,48.21,80,100,8.41
Komsomolskiy,RU,67.55,63.78,1538177983,36.42,92,97,3.15
Ovsyanka,RU,53.58,126.91,1538177983,52.26,0,57,5.95
Chaadayevka,RU,53.14,45.91,1538177983,53.97,68,75,15.46
Ordubad,AZ,38.91,46.02,1538175600,62.6,44,63,9.17
Roseburg,US,43.22,-123.34,1538175360,86.0,1,22,2.93
Jiangyou,CN,31.78,104.73,1538177984,56.76,24,88,2.71
Florianopolis,BR,-27.6,-48.55,1538175600,71.6,75,83,8.05
Ulladulla,AU,-35.36,150.48,1538172000,59.0,92,47,6.93
Maniitsoq,GL,65.42,-52.9,1538177985,34.62,88,100,12.77
San Quintin,PH,17.54,120.52,1538175600,78.8,75,94,4.7
Tessalit,ML,20.2,1.01,1538177560,77.64,32,32,6.06
Verkhnevilyuysk,RU,63.45,120.31,1538177834,40.65,92,85,5.28
Usinsk,RU,66.0,57.56,1538177986,38.13,92,100,4.05
Labuhan,ID,-2.54,115.51,1538177986,78.18,0,76,2.59
Paptalaya,HN,15.5,-84.32,1538177986,76.29,48,89,2.48
Mattawa,CA,46.32,-78.7,1538175600,48.2,90,81,19.46
Iranshahr,IR,27.21,60.69,1538177987,54.78,0,34,2.59
Huarmey,PE,-10.07,-78.15,1538177752,63.96,8,77,3.15
Marovoay,MG,-16.11,46.64,1538175600,73.4,0,78,4.7
Orotukan,RU,62.26,151.67,1538177988,32.73,92,100,4.16
Rognan,NO,67.1,15.4,1538175000,37.4,75,100,14.99
Meulaboh,ID,4.14,96.13,1538177768,78.09,48,100,5.73
Almaznyy,RU,48.03,40.04,1538177989,46.23,0,91,7.52
Lai,CN,27.82,91.75,1538177989,48.84,24,78,0.81
Sarkand,KZ,45.41,79.91,1538177990,55.14,0,41,8.75
Taksimo,RU,56.36,114.84,1538177812,31.83,0,82,2.15
Cartagena del Chaira,CO,1.33,-74.84,1538177990,78.27,8,89,0.25
Upernavik,GL,72.79,-56.15,1538177644,33.63,88,100,16.13
Rosario,UY,-34.31,-57.35,1538177991,74.67,32,72,19.48
Ilorin,NG,8.5,4.55,1538177991,72.6,32,98,5.95
Sabang,PH,13.72,123.58,1538177991,79.53,32,100,5.17
Srednekolymsk,RU,67.46,153.71,1538177992,31.74,92,75,6.62
Sisimiut,GL,66.94,-53.67,1538177804,30.48,88,97,10.2
Kamina,CD,-8.74,25.0,1538177992,66.93,8,81,6.29
Shelburne,CA,44.08,-80.2,1538176380,59.0,90,76,5.82
Ust-Tsilma,RU,65.44,52.15,1538177802,38.04,88,100,2.71
Lakatoro,VU,-16.11,167.42,1538172000,73.4,90,88,14.99
Emerald,AU,-23.53,148.16,1538177993,77.28,0,56,5.17
Rundu,NA,-17.91,19.77,1538177819,71.34,12,34,5.39
Pochutla,MX,15.74,-96.47,1538174580,87.8,75,62,6.93
Marsa Matruh,EG,31.35,27.25,1538172000,77.0,0,83,4.38
Cayenne,GF,4.94,-52.33,1538175600,80.6,20,88,5.82
Klaksvik,FO,62.23,-6.59,1538176800,48.2,92,93,13.87
Bayir,TR,37.27,28.22,1538175000,73.4,40,69,5.82
Bobcaygeon,CA,44.54,-78.55,1538175600,53.6,90,87,11.41
Umm Lajj,SA,25.02,37.27,1538177713,79.26,12,100,4.83
Guangyuan,CN,32.43,105.86,1538177996,52.53,0,81,2.37
Caibarien,CU,22.52,-79.47,1538175060,82.4,20,65,12.75
Tacuarembo,UY,-31.73,-55.98,1538177996,71.34,36,88,9.75
Dourbali,TD,11.81,15.86,1538177997,72.06,12,93,2.15
San Mariano,PH,16.98,122.01,1538177997,78.99,8,92,3.04
Nikolskiy,RU,60.92,34.06,1538177997,37.77,24,92,10.76
Suntar,RU,62.16,117.65,1538177998,38.76,76,87,3.94
Bilma,NE,18.69,12.92,1538177998,72.51,0,32,3.27
Pacific Grove,US,36.62,-121.92,1538175780,68.0,40,58,9.17
Vila Velha,BR,-3.71,-38.6,1538175600,80.6,0,74,9.17
Safford,US,32.83,-109.71,1538175060,93.92,1,16,9.17
Puerto Cabezas,NI,14.04,-83.39,1538175600,78.8,75,88,4.7
Faizpur,IN,21.16,75.86,1538177999,69.9,0,88,2.59
Sibu,MY,2.29,111.83,1538175600,77.0,75,94,1.12
Hobyo,SO,5.35,48.53,1538177926,76.83,88,91,15.12
Mangrol,IN,25.33,76.51,1538178001,68.19,0,73,1.25
Fujieda,JP,34.93,138.23,1538178001,68.28,88,85,9.53
Vestmanna,FO,62.16,-7.17,1538176800,48.2,92,93,13.87
Te Anau,NZ,-45.41,167.72,1538177677,50.19,36,69,18.25
Isla Aguada,MX,18.78,-91.49,1538174580,75.2,90,88,3.36
Manggar,ID,-2.88,108.27,1538178002,81.06,8,84,8.75
Palana,RU,59.08,159.95,1538178003,50.55,32,75,5.61
Manjeshwar,IN,12.72,74.89,1538177400,75.2,40,94,3.36
Ayagoz,KZ,47.96,80.43,1538178003,43.44,12,71,7.52
Zhuhai,CN,40.71,112.04,1538175600,42.8,40,60,8.95
Linfen,CN,36.09,111.52,1538178004,46.14,0,78,2.15
Palmas de Monte Alto,BR,-14.26,-43.16,1538178004,79.8,0,32,11.65
Daura,NG,13.04,8.32,1538178005,73.59,20,72,2.71
Segou,SN,12.41,-12.29,1538178005,72.24,56,97,3.38
Mandiana,GN,10.62,-8.7,1538178005,69.63,68,99,7.07
Visnes,NO,59.36,5.22,1538176800,50.0,92,81,21.92
Quelimane,MZ,-17.88,36.89,1538175600,77.0,0,83,5.82
Maragogi,BR,-9.01,-35.22,1538178006,72.06,24,98,5.61
Mahajanga,MG,-15.72,46.32,1538175600,73.4,0,78,4.7
Montevideo,US,44.94,-95.72,1538176500,55.4,1,7,10.29
Deder,ET,9.31,41.44,1538178007,56.22,0,68,2.59
Tres Arroyos,AR,-38.38,-60.28,1538178008,59.91,92,97,7.96
Halifax,CA,44.65,-63.58,1538176260,55.4,90,100,5.82
Heinola,FI,61.2,26.03,1538176800,33.8,0,80,5.82
Atar,MR,20.52,-13.05,1538177591,77.28,0,30,6.06
Dryden,CA,49.79,-92.84,1538175780,33.8,90,86,12.75
Muros,ES,42.77,-9.06,1538177400,60.8,40,100,2.24
Belyy Yar,RU,53.6,91.39,1538175600,44.6,90,93,2.24
Cabedelo,BR,-6.97,-34.84,1538175600,75.2,0,88,5.82
Borogontsy,RU,62.67,131.17,1538177847,33.81,12,78,4.16
Ostrovnoy,RU,68.05,39.51,1538177753,36.69,88,84,18.14
Adrar,DZ,27.87,-0.29,1538175600,75.2,40,47,12.75
Guntakal,IN,15.16,77.38,1538178011,70.89,88,99,3.94
Husavik,CA,50.56,-96.99,1538178011,36.33,20,88,10.76
Kalianget,ID,-7.74,113.68,1538178012,73.5,8,100,5.17
Tevriz,RU,57.51,72.4,1538178012,44.43,80,87,9.53
Santiago del Estero,AR,-27.8,-64.26,1538178012,77.73,44,72,4.61
Tecoanapa,MX,16.99,-99.26,1538174820,86.0,75,74,5.82
Touros,BR,-5.2,-35.46,1538178013,77.1,64,89,13.0
Cangucu,BR,-31.39,-52.68,1538177822,65.94,76,91,16.46
Manta,RO,45.1,24.1,1538178014,40.11,0,80,2.71
Pangnirtung,CA,66.15,-65.72,1538172000,32.0,90,90,6.93
Ginir,ET,7.14,40.71,1538178015,53.97,8,87,3.04
Agirish,RU,61.92,63.02,1538178015,36.15,0,97,5.39
Ghanzi,BW,-21.7,21.65,1538178015,73.86,36,31,8.19
Praia,BR,-20.25,-43.81,1538175600,78.8,75,50,11.41
Ovre Ardal,NO,61.32,7.8,1538178016,28.14,92,91,2.93
Tonantins,BR,-2.86,-67.77,1538178016,78.0,36,87,3.6
Iracoubo,GF,5.48,-53.21,1538178016,80.97,0,73,7.29
Moche,PE,-8.17,-79.01,1538175600,62.6,20,88,8.05
Berlevag,NO,70.86,29.09,1538177804,30.66,12,100,6.85
Huanren,CN,41.26,125.37,1538177769,55.77,36,99,3.71
Peniche,PT,39.36,-9.38,1538175600,64.4,0,72,5.82
Inhambane,MZ,-23.87,35.38,1538177899,72.33,0,100,7.52
Hailar,CN,49.2,119.7,1538178018,45.33,68,97,12.66
Turukhansk,RU,65.8,87.96,1538178018,49.83,76,90,19.04
Pedernales,EC,0.07,-80.05,1538178018,75.84,32,78,7.4
Vardo,US,39.62,-77.74,1538175300,71.96,1,59,3.36
Vakhtan,RU,57.97,46.69,1538178019,38.4,88,98,8.41
Chimbote,PE,-9.08,-78.59,1538178019,64.14,24,87,6.4
Luanda,AO,-8.83,13.24,1538172000,73.4,75,83,4.7
Lieksa,FI,63.32,30.02,1538178020,33.54,32,86,7.07
Lithakia,GR,37.72,20.83,1538176800,62.6,75,88,11.43
Port-Cartier,CA,50.03,-66.88,1538175600,44.6,20,87,14.99
Hay River,CA,60.82,-115.79,1538175600,39.2,75,48,21.92
Mossendjo,CG,-2.95,12.72,1538178021,70.89,100,99,2.37
Iralaya,HN,15.0,-83.23,1538178021,81.51,68,87,6.62
Nelson Bay,AU,-32.72,152.14,1538175600,68.0,48,45,12.75
San Nicolas,HN,14.94,-88.33,1538178022,71.43,80,93,1.7
Ixtapa,MX,20.71,-105.21,1538174820,87.8,40,70,6.93
Darhan,MN,49.49,105.92,1538178022,34.44,92,92,8.75
Chicama,PE,-7.84,-79.15,1538175600,62.6,20,88,8.05
Wloszczowa,PL,50.85,19.97,1538178023,48.39,56,72,11.1
Montepuez,MZ,-13.13,39.0,1538178023,63.96,0,91,5.61
Fayetteville,US,36.06,-94.16,1538175480,75.2,1,68,3.36
Tynda,RU,55.15,124.74,1538178024,44.16,0,76,4.16
Mogadishu,SO,2.04,45.34,1538178024,76.83,76,100,10.2
Hohhot,CN,40.81,111.65,1538175600,42.8,40,60,8.95
San Jeronimo,PE,-13.65,-73.37,1538178025,53.79,92,39,1.7
Dukat,RS,42.44,22.31,1538178025,42.36,36,67,2.71
Olhao,PT,37.03,-7.84,1538175600,71.6,0,83,4.7
Maunabo,PR,18.01,-65.9,1538176440,80.96,90,97,12.75
Karratha,AU,-20.74,116.85,1538178026,69.0,0,61,4.61
Rio Grande,BR,-32.03,-52.1,1538178027,66.12,92,94,24.07
Bereda,ES,43.27,-7.54,1538177400,59.0,90,100,1.12
